{
    "data": {
        "geometry4": [
            {
                "address": "ایران, تهران, منطقه ۷, محله شارق (شاهد), حجار",
                "postal_address": "تهران, حجار",
                "address_compact": "تهران, محله شارق (شاهد), حجار",
                "last": "حجار",
                "name": "حجار",
                "poi": "",
                "country": "ایران",
                "province": "تهران",
                "county": "تهران",
                "district": "",
                "rural_district": "تهران",
                "city": "تهران",
                "village": "",
                "region": "منطقه ۷",
                "neighbourhood": "محله شارق (شاهد)",
                "primary": "حجار",
                "plaque": "",
                "postal_code": "",
                "geom": {
                    "type": "Point",
                    "coordinates": [
                        "51.46270751953125",
                        "35.71083783530009"
                    ]
                }
            }
        ],
        "geometry5": [
            {
                "address": "ایران, تهران, ري, منطقه ۲۰, محله ظهيرآباد, سیدحسن غیوری, ابن بابویه, رنگ آمیز",
                "postal_address": "ري, سیدحسن غیوری, رنگ آمیز",
                "address_compact": "تهران, ري, محله ظهيرآباد, سیدحسن غیوری, ابن بابویه, رنگ آمیز",
                "last": "رنگ آمیز",
                "name": "رنگ آمیز",
                "poi": "",
                "country": "ایران",
                "province": "تهران",
                "county": "تهران",
                "district": "",
                "rural_district": "تهران",
                "city": "ري",
                "village": "",
                "region": "منطقه ۲۰",
                "neighbourhood": "محله ظهيرآباد",
                "primary": "رنگ آمیز",
                "plaque": "",
                "postal_code": "",
                "geom": {
                    "type": "Point",
                    "coordinates": [
                        "51.44210815429687",
                        "35.59925232772949"
                    ]
                }
            }
        ],
        "geometry6": [
            {
                "address": "ایران, تهران, منطقه ۲۱, محله شهرک استقلال, عباس شفیعی, جهاد جنوبی, خیابان تعاون",
                "postal_address": "تهران, عباس شفیعی, خیابان تعاون",
                "address_compact": "تهران, محله شهرک استقلال, عباس شفیعی, جهاد جنوبی, خیابان تعاون",
                "last": "خیابان تعاون",
                "name": "خیابان تعاون",
                "poi": "",
                "country": "ایران",
                "province": "تهران",
                "county": "تهران",
                "district": "",
                "rural_district": "تهران",
                "city": "تهران",
                "village": "",
                "region": "منطقه ۲۱",
                "neighbourhood": "محله شهرک استقلال",
                "primary": "خیابان تعاون",
                "plaque": "",
                "postal_code": "",
                "geom": {
                    "type": "Point",
                    "coordinates": [
                        "51.21551513671875",
                        "35.708607653285505"
                    ]
                }
            }
        ],
        "geometry7": [
            {
                "address": "ایران, تهران, منطقه ۲, محله سعادت آباد, بلوار سعادت آباد, چهارم",
                "postal_address": "تهران, بلوار سعادت آباد, چهارم",
                "address_compact": "تهران, محله سعادت آباد, بلوار سعادت آباد, چهارم",
                "last": "چهارم",
                "name": "چهارم",
                "poi": "",
                "country": "ایران",
                "province": "تهران",
                "county": "تهران",
                "district": "",
                "rural_district": "تهران",
                "city": "تهران",
                "village": "",
                "region": "منطقه ۲",
                "neighbourhood": "محله سعادت آباد",
                "primary": "چهارم",
                "plaque": "",
                "postal_code": "",
                "geom": {
                    "type": "Point",
                    "coordinates": [
                        "51.37481689453125",
                        "35.78551286273958"
                    ]
                }
            }
        ],
        "geometry8": [
            {
                "address": "ایران, تهران, منطقه ۴, محله تهران پارس (تهرانپارس شرقي), صد و نود و ششم شرقی, شادالویی, شهابی",
                "postal_address": "تهران, صد و نود و ششم شرقی, شهابی",
                "address_compact": "تهران, محله تهران پارس (تهرانپارس شرقي), صد و نود و ششم شرقی, شادالویی, شهابی",
                "last": "شهابی",
                "name": "شهابی",
                "poi": "",
                "country": "ایران",
                "province": "تهران",
                "county": "تهران",
                "district": "",
                "rural_district": "تهران",
                "city": "تهران",
                "village": "",
                "region": "منطقه ۴",
                "neighbourhood": "محله تهران پارس (تهرانپارس شرقي)",
                "primary": "شهابی",
                "plaque": "",
                "postal_code": "",
                "geom": {
                    "type": "Point",
                    "coordinates": [
                        "51.54510498046875",
                        "35.73870984488909"
                    ]
                }
            }
        ]
    }
}
